[
  {
    "address": {
      "postalCode": "32819",
      "address": "8101 S John Young Pkwy",
      "city": "Orlando",
      "state": "FL",
      "country": "US"
    },
    "id": 207,
    "phone": "407-354-5665",
    "displayName": "Orlando Supercenter",
    "geoPoint": {
      "latitude": 28.447665,
      "longitude": -81.424513
    },
    "operationalHours": {
      "open24Hours": true,
      "monToFriHrs": {
        "startHr": "00:00",
        "endHr": "24:00",
        "openFullDay": true
      },
      "sundayHrs": {
        "startHr": "00:00",
        "endHr": "24:00",
        "openFullDay": true
      },
      "saturdayHrs": {
        "startHr": "00:00",
        "endHr": "24:00",
        "openFullDay": true
      },
      "todayHrs": {
        "startHr": "00:00",
        "endHr": "24:00",
        "openFullDay": true
      },
      "tomorrowHrs": {
        "startHr": "00:00",
        "endHr": "24:00",
        "openFullDay": true
      }
    }
  },
  {
    "address": {
      "postalCode": "32819",
      "address": "8990 Turkey Lake Rd",
      "city": "Orlando",
      "state": "FL",
      "country": "US"
    },
    "id": 339,
    "phone": "407-351-2229",
    "displayName": "Orlando Supercenter",
    "geoPoint": {
      "latitude": 28.43987,
      "longitude": -81.476496
    },
    "operationalHours": {
      "open24Hours": true,
      "monToFriHrs": {
        "startHr": "00:00",
        "endHr": "24:00",
        "openFullDay": true
      },
      "sundayHrs": {
        "startHr": "00:00",
        "endHr": "24:00",
        "openFullDay": true
      },
      "saturdayHrs": {
        "startHr": "00:00",
        "endHr": "24:00",
        "openFullDay": true
      },
      "todayHrs": {
        "startHr": "00:00",
        "endHr": "24:00",
        "openFullDay": true
      },
      "tomorrowHrs": {
        "startHr": "00:00",
        "endHr": "24:00",
        "openFullDay": true
      }
    }
  },
  {
    "address": {
      "postalCode": "32811",
      "address": "2500 S Kirkman Rd",
      "city": "Orlando",
      "state": "FL",
      "country": "US"
    },
    "id": 424,
    "phone": "407-290-6977",
    "displayName": "Orlando Supercenter",
    "geoPoint": {
      "latitude": 28.515333,
      "longitude": -81.462791
    },
    "operationalHours": {
      "open24Hours": true,
      "monToFriHrs": {
        "startHr": "00:00",
        "endHr": "24:00",
        "openFullDay": true
      },
      "sundayHrs": {
        "startHr": "00:00",
        "endHr": "24:00",
        "openFullDay": true
      },
      "saturdayHrs": {
        "startHr": "00:00",
        "endHr": "24:00",
        "openFullDay": true
      },
      "todayHrs": {
        "startHr": "00:00",
        "endHr": "24:00",
        "openFullDay": true
      },
      "tomorrowHrs": {
        "startHr": "00:00",
        "endHr": "24:00",
        "openFullDay": true
      }
    }
  },
  {
    "address": {
      "postalCode": "32839",
      "address": "5734 S. Orange Blossom Trl",
      "city": "Orlando",
      "state": "FL",
      "country": "US"
    },
    "id": 173,
    "phone": "321-247-4817",
    "displayName": "Orlando Supercenter",
    "geoPoint": {
      "latitude": 28.474913,
      "longitude": -81.399118
    },
    "operationalHours": {
      "open24Hours": null,
      "monToFriHrs": {
        "startHr": "06:00",
        "endHr": "23:00",
        "openFullDay": null
      },
      "sundayHrs": {
        "startHr": "06:00",
        "endHr": "23:00",
        "openFullDay": null
      },
      "saturdayHrs": {
        "startHr": "06:00",
        "endHr": "23:00",
        "openFullDay": null
      },
      "todayHrs": {
        "startHr": "06:00",
        "endHr": "23:00",
        "openFullDay": null
      },
      "tomorrowHrs": {
        "startHr": "06:00",
        "endHr": "23:00",
        "openFullDay": null
      }
    }
  },
  {
    "address": {
      "postalCode": "32835",
      "address": "8801 Conroy Windermere Rd",
      "city": "Orlando",
      "state": "FL",
      "country": "US"
    },
    "id": 896,
    "phone": "407-605-4001",
    "displayName": "Orlando Neighborhood Market",
    "geoPoint": {
      "latitude": 28.495732,
      "longitude": -81.506554
    },
    "operationalHours": {
      "open24Hours": null,
      "monToFriHrs": {
        "startHr": "06:00",
        "endHr": "24:00",
        "openFullDay": null
      },
      "sundayHrs": {
        "startHr": "06:00",
        "endHr": "24:00",
        "openFullDay": null
      },
      "saturdayHrs": {
        "startHr": "06:00",
        "endHr": "24:00",
        "openFullDay": null
      },
      "todayHrs": {
        "startHr": "06:00",
        "endHr": "24:00",
        "openFullDay": null
      },
      "tomorrowHrs": {
        "startHr": "06:00",
        "endHr": "24:00",
        "openFullDay": null
      }
    }
  },
  {
    "address": {
      "postalCode": "32837",
      "address": "9600 Parksouth Court Suite 100",
      "city": "Orlando",
      "state": "FL",
      "country": "US"
    },
    "id": 311,
    "phone": "877-453-4566",
    "displayName": "Orlando Pharmacy",
    "geoPoint": {
      "latitude": 28.428274,
      "longitude": -81.414976
    },
    "operationalHours": {
      "open24Hours": true,
      "monToFriHrs": {
        "startHr": "00:00",
        "endHr": "24:00",
        "openFullDay": true
      },
      "sundayHrs": {
        "startHr": "00:00",
        "endHr": "24:00",
        "openFullDay": true
      },
      "saturdayHrs": {
        "startHr": "00:00",
        "endHr": "24:00",
        "openFullDay": true
      },
      "todayHrs": {
        "startHr": "00:00",
        "endHr": "24:00",
        "openFullDay": true
      },
      "tomorrowHrs": {
        "startHr": "00:00",
        "endHr": "24:00",
        "openFullDay": true
      }
    }
  },
  {
    "address": {
      "postalCode": "32837",
      "address": "9600 Parksouth Court",
      "city": "Orlando",
      "state": "FL",
      "country": "US"
    },
    "id": 992,
    "phone": "407-826-6951",
    "displayName": "Orlando Pharmacy",
    "geoPoint": {
      "latitude": 28.428206,
      "longitude": -81.414975
    },
    "operationalHours": {
      "open24Hours": null,
      "monToFriHrs": null,
      "sundayHrs": null,
      "saturdayHrs": null,
      "todayHrs": null,
      "tomorrowHrs": null
    }
  },
  {
    "address": {
      "postalCode": "32805",
      "address": "1101 S. Goldwyn",
      "city": "Orlando",
      "state": "FL",
      "country": "US"
    },
    "id": 768,
    "phone": "407-563-9069",
    "displayName": "Orlando Neighborhood Market",
    "geoPoint": {
      "latitude": 28.527849,
      "longitude": -81.416855
    },
    "operationalHours": {
      "open24Hours": null,
      "monToFriHrs": {
        "startHr": "06:00",
        "endHr": "23:00",
        "openFullDay": null
      },
      "sundayHrs": {
        "startHr": "06:00",
        "endHr": "23:00",
        "openFullDay": null
      },
      "saturdayHrs": {
        "startHr": "06:00",
        "endHr": "23:00",
        "openFullDay": null
      },
      "todayHrs": {
        "startHr": "06:00",
        "endHr": "23:00",
        "openFullDay": null
      },
      "tomorrowHrs": {
        "startHr": "06:00",
        "endHr": "23:00",
        "openFullDay": null
      }
    }
  },
  {
    "address": {
      "postalCode": "32806",
      "address": "2715 S Orange Ave",
      "city": "Orlando",
      "state": "FL",
      "country": "US"
    },
    "id": 366,
    "phone": "407-241-4080",
    "displayName": "Orlando Neighborhood Market",
    "geoPoint": {
      "latitude": 28.511893,
      "longitude": -81.374947
    },
    "operationalHours": {
      "open24Hours": true,
      "monToFriHrs": {
        "startHr": "00:00",
        "endHr": "24:00",
        "openFullDay": true
      },
      "sundayHrs": {
        "startHr": "00:00",
        "endHr": "24:00",
        "openFullDay": true
      },
      "saturdayHrs": {
        "startHr": "00:00",
        "endHr": "24:00",
        "openFullDay": true
      },
      "todayHrs": {
        "startHr": "00:00",
        "endHr": "24:00",
        "openFullDay": true
      },
      "tomorrowHrs": {
        "startHr": "00:00",
        "endHr": "24:00",
        "openFullDay": true
      }
    }
  },
  {
    "address": {
      "postalCode": "32818",
      "address": "7818 Colonial West Drive",
      "city": "Orlando",
      "state": "FL",
      "country": "US"
    },
    "id": 524,
    "phone": "407-522-4552",
    "displayName": "Orlando Neighborhood Market",
    "geoPoint": {
      "latitude": 28.549978,
      "longitude": -81.49085
    },
    "operationalHours": {
      "open24Hours": null,
      "monToFriHrs": {
        "startHr": "06:00",
        "endHr": "24:00",
        "openFullDay": null
      },
      "sundayHrs": {
        "startHr": "06:00",
        "endHr": "24:00",
        "openFullDay": null
      },
      "saturdayHrs": {
        "startHr": "06:00",
        "endHr": "24:00",
        "openFullDay": null
      },
      "todayHrs": {
        "startHr": "06:00",
        "endHr": "24:00",
        "openFullDay": null
      },
      "tomorrowHrs": {
        "startHr": "06:00",
        "endHr": "24:00",
        "openFullDay": null
      }
    }
  }
]
